[
  {
    "id": 1,
    "name": "Brent Taylor 56th Birthday Party",
    "location": "Kulas Light Gwenborough 92998-3874",
    "phone": "1-770-736-8031 x56442",
    "date": "2020/07/19",
  },
  {
    "id": 2,
    "name": "Ervin Howell Retirement Event",
     "location": "Johanneburg, University of Wits",
    "phone": "+27739099890",
    "date": "2020/08/19",
  },
  {
    "id": 3,
    "name": "Clementine Bauch Bingo Night",
    "location": "5647 Elands Street, Upington",
    "phone": "+274458890990",
    "date": "2020/06/10",
  },
  {
    "id": 4,
    "name": "Patricia Lebsack Baby Shower",
    "location": "1234 Ether Street, Pimville, Soweto",
    "phone": "+271267778922",
    "date": "2020/12/31",
  },
  {
    "id": 5,
    "name": "AKA Live Concert",
     "location": "Coca-Cola Dome, Northriding, Johannesburg",
    "phone": "+27879998019",
    "date": "2020/10/25",
  },
  {
    "id": 6,
    "name": "Mrs. D. Schulist Book Publishing",
     "location": "Shop S63 & 64, Okavango Rd, Brackenfell, Cape Town, 7560",
    "phone": "+279000854366",
    "date": "2021/11/09",
  },
  {
    "id": 7,
    "name": "FBK Party",
     "location": "Kenny's CarWash, Soshanguve - XX, Soshanguve, 0164",
    "phone": "+0156854366",
    "date": "2022/11/09",
  },
  {
    "id": 8,
    "name": "Rick Ross Music Video",
    "location": "225 Baker St NW, Atlanta, GA 30313, United States",
    "phone": "+2776854366",
    "date": "2023/11/09",
  },
  {
    "id": 9,
    "name": "Glenna Reichert Fishing Expo",
   "location": "Atterbury Rd &, Lois Ave, Menlyn, Pretoria, 0063",
    "phone": " +1 404-589-1122",
    "date": "2020/09/09",
  },
  {
    "id": 10,
    "name": "COD LAN Party",
     "location": "Rungwana Ward, Moshupa, Botswana. PO Box 100, Gaborone, Botswana Phone, Mosopa, Botswana",
    "phone": "+267 544 9243",
    "date": "2020/08/23",
  },
]
